[{"datebegin":"19\/08\/2002","dateend":"19\/08\/2004","name":"Festival du chant de marin","town":"Paimpol","lat":"48.77948180000000000000","lon":"-3.04840220000000000000"},{"datebegin":"19\/08\/2002","dateend":"19\/08\/2004","name":"Festival du bout du monde !!","town":"Crozon","lat":"48.24639890000000000000","lon":"-4.48944630000000000000"},{"datebegin":"19\/07\/2005","dateend":"19\/07\/2006","name":"Bobital, l\u2019armor \u00e0 sons","town":"Bobital","lat":"48.41360100000000000000","lon":"-2.10263800000000000000"},{"datebegin":"19\/02\/2006","dateend":"19\/02\/2010","name":"Astropolis' l'hiver","town":"Brest","lat":"48.39052830000000000000","lon":"-4.48600880000000000000"},{"datebegin":"19\/07\/2006","dateend":"19\/07\/2007","name":"F\u00eate du bruit","town":"Saint-Nolff","lat":"0.00000000000000000000","lon":"0.00000000000000000000"},{"datebegin":"19\/06\/2007","dateend":"19\/06\/2009","name":"Festival Art Rock","town":"Saint-Brieuc","lat":"0.00000000000000000000","lon":"0.00000000000000000000"},{"datebegin":"19\/06\/2008","dateend":"19\/06\/2009","name":"Les Pieds dans la vase","town":"Kervignac","lat":"0.00000000000000000000","lon":"0.00000000000000000000"},{"datebegin":"19\/08\/2009","dateend":"19\/08\/2011","name":"F\u00eate du bruit","town":"Landerneau","lat":"48.45090000000000000000","lon":"-4.24931000000003700000"},{"datebegin":"19\/04\/2012","dateend":"19\/04\/2014","name":"Panoramas","town":"Morlaix","lat":"0.00000000000000000000","lon":"0.00000000000000000000"},{"datebegin":"19\/02\/2015","dateend":"19\/02\/2017","name":"Festival Roue Waroch","town":"Plescop","lat":"0.00000000000000000000","lon":"0.00000000000000000000"},{"datebegin":"19\/06\/2015","dateend":"19\/06\/2015","name":"God save the kouign","town":"Penmarch","lat":"0.00000000000000000000","lon":"0.00000000000000000000"},{"datebegin":"19\/08\/2015","dateend":"19\/08\/2018","name":"Motocultor festival","town":"Saint-Nolff","lat":"47.70329180000000000000","lon":"-2.65237930000000000000"},{"datebegin":"19\/07\/2018","dateend":"19\/07\/2021","name":"Les Vielles charrues","town":"\u00a0Carhaix Plouguer","lat":"48.27649970000000000000","lon":"-3.57114770000000000000"},{"datebegin":"19\/03\/2019","dateend":"19\/03\/2024","name":"Les Emancip\u00e9es","town":"Vannes","lat":"0.00000000000000000000","lon":"0.00000000000000000000"},{"datebegin":"19\/04\/2019","dateend":"19\/04\/2021","name":"Seiwa Festival","town":"Plobannalec Lesconil\u00a0","lat":"0.00000000000000000000","lon":"0.00000000000000000000"},{"datebegin":"19\/06\/2019","dateend":"19\/06\/2019","name":"Jardins d'hiver ...!","town":"Rennes","lat":"48.11133870000000000000","lon":"-1.68001980000000000000"},{"datebegin":"19\/04\/2020","dateend":"19\/04\/2020","name":"Festival insolent","town":"Lorient","lat":"0.00000000000000000000","lon":"0.00000000000000000000"},{"datebegin":"19\/04\/2021","dateend":"19\/04\/2027","name":"Hellfest warm up tour","town":"Rennes","lat":"0.00000000000000000000","lon":"0.00000000000000000000"},{"datebegin":"19\/03\/2022","dateend":"19\/03\/2023","name":"Bouge ton cube","town":"Lauzach","lat":"0.00000000000000000000","lon":"0.00000000000000000000"},{"datebegin":"19\/01\/2025","dateend":"19\/01\/2026","name":"Festival du Schmoul","town":"Bain de Bretagne","lat":"0.00000000000000000000","lon":"0.00000000000000000000"},{"datebegin":"19\/04\/2025","dateend":"19\/04\/2029","name":"Comedy festival","town":"Dinard","lat":"0.00000000000000000000","lon":"0.00000000000000000000"},{"datebegin":"19\/03\/2029","dateend":"19\/04\/2007","name":"Mythos","town":"Rennes","lat":"0.00000000000000000000","lon":"0.00000000000000000000"},{"datebegin":"19\/05\/2030","dateend":"19\/06\/2001","name":"Les Petites folies","town":"Lampaul Plouarzel","lat":"0.00000000000000000000","lon":"0.00000000000000000000"}]